{"type": "FeatureCollection", "features": [{"properties": {"marker-color": "#808080", "agency": "KVR", "address": "Kapuzinerstr. 31"}, "type": "Feature", "geometry": {"coordinates": [11.5611269, 48.1254734], "type": "Point"}}, {"properties": {"marker-color": "#00387b", "agency": "Polizeiinspektion 14", "address": "Paul-Heyse-Str. 21"}, "type": "Feature", "geometry": {"coordinates": [11.5560295, 48.1368126], "type": "Point"}}, {"properties": {"marker-color": "#00387b", "agency": "Polizeiinspektion 42", "address": "Marlene-Dietrich-Str. 18"}, "type": "Feature", "geometry": {"coordinates": [11.5419035, 48.144437], "type": "Point"}}, {"properties": {"marker-color": "#00387b", "agency": "Polizeiinspektion 42", "address": "Arnulfstra\u00dfe 51"}, "type": "Feature", "geometry": {"coordinates": [11.5422377, 48.1447896], "type": "Point"}}, {"properties": {"marker-color": "#808080", "agency": "KVR", "address": "Marsstra\u00dfe 48"}, "type": "Feature", "geometry": {"coordinates": [11.5530361, 48.14512], "type": "Point"}}, {"properties": {"marker-color": "#00387b", "agency": "Polizeiinspektion 42", "address": "Erika-Mann-Str. 17"}, "type": "Feature", "geometry": {"coordinates": [11.5442857, 48.1427842], "type": "Point"}}, {"properties": {"marker-color": "#00387b", "agency": "Polizeiinspektion 42", "address": "Sedlmayrstra\u00dfe. 2"}, "type": "Feature", "geometry": {"coordinates": [11.53130024355, 48.1456917], "type": "Point"}}, {"properties": {"marker-color": "#00387b", "agency": "Polizeiinspektion 42", "address": "Grete-Mosheim-Stra\u00dfe"}, "type": "Feature", "geometry": {"coordinates": [11.5450842, 48.1435241], "type": "Point"}}, {"properties": {"marker-color": "#00387b", "agency": "Polizeiinspektion 42", "address": "Erika-Mann-Str. 21"}, "type": "Feature", "geometry": {"coordinates": [11.5434995, 48.1428413], "type": "Point"}}]}