{"type": "FeatureCollection", "features": [{"type": "Feature", "properties": {"marker-color": "#808080", "address": "Kapuzinerstr. 31", "agency": "KVR"}, "geometry": {"type": "Point", "coordinates": [11.5611269, 48.1254734]}}, {"type": "Feature", "properties": {"marker-color": "#00387b", "address": "Paul-Heyse-Str. 21", "agency": "Polizeiinspektion 14"}, "geometry": {"type": "Point", "coordinates": [11.5560295, 48.1368126]}}, {"type": "Feature", "properties": {"marker-color": "#00387b", "address": "Marlene-Dietrich-Str. 18", "agency": "Polizeiinspektion 42"}, "geometry": {"type": "Point", "coordinates": [11.5419035, 48.144437]}}, {"type": "Feature", "properties": {"marker-color": "#00387b", "address": "Arnulfstra\u00dfe 51", "agency": "Polizeiinspektion 42"}, "geometry": {"type": "Point", "coordinates": [11.5422377, 48.1447896]}}, {"type": "Feature", "properties": {"marker-color": "#808080", "address": "Marsstra\u00dfe 48", "agency": "KVR"}, "geometry": {"type": "Point", "coordinates": [11.5530361, 48.14512]}}, {"type": "Feature", "properties": {"marker-color": "#00387b", "address": "Erika-Mann-Str. 17", "agency": "Polizeiinspektion 42"}, "geometry": {"type": "Point", "coordinates": [11.5442857, 48.1427842]}}, {"type": "Feature", "properties": {"marker-color": "#00387b", "address": "Sedlmayrstra\u00dfe. 2", "agency": "Polizeiinspektion 42"}, "geometry": {"type": "Point", "coordinates": [11.53130024355, 48.1456917]}}, {"type": "Feature", "properties": {"marker-color": "#00387b", "address": "Grete-Mosheim-Stra\u00dfe", "agency": "Polizeiinspektion 42"}, "geometry": {"type": "Point", "coordinates": [11.5450842, 48.1435241]}}, {"type": "Feature", "properties": {"marker-color": "#00387b", "address": "Erika-Mann-Str. 21", "agency": "Polizeiinspektion 42"}, "geometry": {"type": "Point", "coordinates": [11.5434995, 48.1428413]}}, {"type": "Feature", "properties": {"marker-color": "#00387b", "address": "Seidlstra\u00dfe 3", "agency": "Polizeiinspektion 14"}, "geometry": {"type": "Point", "coordinates": [11.5569849, 48.1435521]}}, {"type": "Feature", "properties": {"marker-color": "#00387b", "address": "Seidlstra\u00dfe 8", "agency": "Polizeiinspektion 14"}, "geometry": {"type": "Point", "coordinates": [11.5566057, 48.1427876]}}, {"type": "Feature", "properties": {"marker-color": "#00387b", "address": "Seidlstra\u00dfe 8", "agency": "Polizeiinspektion 14"}, "geometry": {"type": "Point", "coordinates": [11.5566057, 48.1427876]}}, {"type": "Feature", "properties": {"marker-color": "#00387b", "address": "Seidlstra\u00dfe 30", "agency": "Polizeiinspektion 12"}, "geometry": {"type": "Point", "coordinates": [11.5585069, 48.1459693]}}]}