{"type": "FeatureCollection", "features": [{"geometry": {"coordinates": [11.5611269, 48.1254734], "type": "Point"}, "properties": {"agency": "KVR", "marker-color": "#808080", "address": "Kapuzinerstr. 31"}, "type": "Feature"}, {"geometry": {"coordinates": [11.5560295, 48.1368126], "type": "Point"}, "properties": {"agency": "Polizeiinspektion 14", "marker-color": "#00387b", "address": "Paul-Heyse-Str. 21"}, "type": "Feature"}, {"geometry": {"coordinates": [11.5419035, 48.144437], "type": "Point"}, "properties": {"agency": "Polizeiinspektion 42", "marker-color": "#00387b", "address": "Marlene-Dietrich-Str. 18"}, "type": "Feature"}, {"geometry": {"coordinates": [11.5422377, 48.1447896], "type": "Point"}, "properties": {"agency": "Polizeiinspektion 42", "marker-color": "#00387b", "address": "Arnulfstra\u00dfe 51"}, "type": "Feature"}, {"geometry": {"coordinates": [11.5530361, 48.14512], "type": "Point"}, "properties": {"agency": "KVR", "marker-color": "#808080", "address": "Marsstra\u00dfe 48"}, "type": "Feature"}, {"geometry": {"coordinates": [11.5442857, 48.1427842], "type": "Point"}, "properties": {"agency": "Polizeiinspektion 42", "marker-color": "#00387b", "address": "Erika-Mann-Str. 17"}, "type": "Feature"}, {"geometry": {"coordinates": [11.53130024355, 48.1456917], "type": "Point"}, "properties": {"agency": "Polizeiinspektion 42", "marker-color": "#00387b", "address": "Sedlmayrstra\u00dfe. 2"}, "type": "Feature"}]}